[{"city": "Reggio Calabria", "lat": 38.11047, "lon": 15.66129},
 {"city": "Palermo", "lat": 37.81667, "lon": 13.583329999999998},
 {"city": "Cagliari", "lat": 39.230540000000005, "lon": 9.11917},
 {"city": "Venezia", "lat": 45.5, "lon": 12.0},
 {"city": "Trieste", "lat": 45.64953, "lon": 13.776779999999999},
 {"city": "Trento", "lat": 46.06787, "lon": 11.121080000000001},
 {"city": "Torino", "lat": 45.13333, "lon": 7.36667},
 {"city": "Potenza", "lat": 40.64175, "lon": 15.807939999999999},
 {"city": "Perugia", "lat": 43.1122, "lon": 12.38878},
 {"city": "Napoli", "lat": 40.88333, "lon": 14.416670000000002},
 {"city": "L'Aquila", "lat": 42.35055, "lon": 13.39954},
 {"city": "Campobasso", "lat": 41.559470000000005, "lon": 14.667370000000002},
 {"city": "Bolzano", "lat": 46.71667, "lon": 11.5},
 {"city": "Bologna", "lat": 44.46667, "lon": 11.43333},
 {"city": "Bari", "lat": 40.93333, "lon": 16.66667},
 {"city": "Aosta", "lat": 45.73764, "lon": 7.31722},
 {"city": "Ancona", "lat": 43.5942, "lon": 13.50337},
 {"city": "Firenze", "lat": 45.43326, "lon": 12.33597},
 {"city": "Milano", "lat": 45.46416, "lon": 9.191989999999999},
 {"city": "Roma", "lat": 44.99364, "lon": 11.10642},
 {"city": "Genova", "lat": 45.21604, "lon": 11.872110000000001}]